{"fullgameschedule":{"lastUpdatedOn":"2018-01-28 2:01:47 AM","gameentry":[{"id":"40310","scheduleStatus":"Normal","originalDate":null,"originalTime":null,"delayedOrPostponedReason":null,"date":"2017-04-15","time":"3:00PM","awayTeam":{"ID":"87","City":"Indiana","Name":"Pacers","Abbreviation":"IND"},"homeTeam":{"ID":"86","City":"Cleveland","Name":"Cavaliers","Abbreviation":"CLE"},"location":"Quicken Loans Arena"},{"id":"40314","scheduleStatus":"Normal","originalDate":null,"originalTime":null,"delayedOrPostponedReason":null,"date":"2017-04-15","time":"5:30PM","awayTeam":{"ID":"90","City":"Milwaukee","Name":"Bucks","Abbreviation":"MIL"},"homeTeam":{"ID":"81","City":"Toronto","Name":"Raptors","Abbreviation":"TOR"},"location":"Air Canada Center"},{"id":"40326","scheduleStatus":"Normal","originalDate":null,"originalTime":null,"delayedOrPostponedReason":null,"date":"2017-04-15","time":"8:00PM","awayTeam":{"ID":"107","City":"Memphis","Name":"Grizzlies","Abbreviation":"MEM"},"homeTeam":{"ID":"106","City":"San Antonio","Name":"Spurs","Abbreviation":"SAS"},"location":"ATu0026T Center"},{"id":"40334","scheduleStatus":"Normal","originalDate":null,"originalTime":null,"delayedOrPostponedReason":null,"date":"2017-04-15","time":"10:30PM","awayTeam":{"ID":"98","City":"Utah","Name":"Jazz","Abbreviation":"UTA"},"homeTeam":{"ID":"102","City":"Los Angeles","Name":"Clippers","Abbreviation":"LAC"},"location":"Staples Center"},{"id":"40318","scheduleStatus":"Normal","originalDate":null,"originalTime":null,"delayedOrPostponedReason":null,"date":"2017-04-16","time":"1:00PM","awayTeam":{"ID":"91","City":"Atlanta","Name":"Hawks","Abbreviation":"ATL"},"homeTeam":{"ID":"94","City":"Washington","Name":"Wizards","Abbreviation":"WAS"},"location":"Capital One Arena"},{"id":"40322","scheduleStatus":"Normal","originalDate":null,"originalTime":null,"delayedOrPostponedReason":null,"date":"2017-04-16","time":"3:30PM","awayTeam":{"ID":"97","City":"Portland","Name":"Trail Blazers","Abbreviation":"POR"},"homeTeam":{"ID":"101","City":"Golden State","Name":"Warriors","Abbreviation":"GSW"},"location":"Oracle Arena"},{"id":"40306","scheduleStatus":"Normal","originalDate":null,"originalTime":null,"delayedOrPostponedReason":null,"date":"2017-04-16","time":"6:30PM","awayTeam":{"ID":"89","City":"Chicago","Name":"Bulls","Abbreviation":"CHI"},"homeTeam":{"ID":"82","City":"Boston","Name":"Celtics","Abbreviation":"BOS"},"location":"TD Garden"},{"id":"40330","scheduleStatus":"Normal","originalDate":null,"originalTime":null,"delayedOrPostponedReason":null,"date":"2017-04-16","time":"9:00PM","awayTeam":{"ID":"96","City":"Oklahoma City","Name":"Thunder","Abbreviation":"OKL"},"homeTeam":{"ID":"109","City":"Houston","Name":"Rockets","Abbreviation":"HOU"},"location":"Toyota Center"},{"id":"40311","scheduleStatus":"Normal","originalDate":null,"originalTime":null,"delayedOrPostponedReason":null,"date":"2017-04-17","time":"7:00PM","awayTeam":{"ID":"87","City":"Indiana","Name":"Pacers","Abbreviation":"IND"},"homeTeam":{"ID":"86","City":"Cleveland","Name":"Cavaliers","Abbreviation":"CLE"},"location":"Quicken Loans Arena"},{"id":"40327","scheduleStatus":"Normal","originalDate":null,"originalTime":null,"delayedOrPostponedReason":null,"date":"2017-04-17","time":"9:30PM","awayTeam":{"ID":"107","City":"Memphis","Name":"Grizzlies","Abbreviation":"MEM"},"homeTeam":{"ID":"106","City":"San Antonio","Name":"Spurs","Abbreviation":"SAS"},"location":"ATu0026T Center"},{"id":"40315","scheduleStatus":"Normal","originalDate":null,"originalTime":null,"delayedOrPostponedReason":null,"date":"2017-04-18","time":"7:00PM","awayTeam":{"ID":"90","City":"Milwaukee","Name":"Bucks","Abbreviation":"MIL"},"homeTeam":{"ID":"81","City":"Toronto","Name":"Raptors","Abbreviation":"TOR"},"location":"Air Canada Center"},{"id":"40307","scheduleStatus":"Normal","originalDate":null,"originalTime":null,"delayedOrPostponedReason":null,"date":"2017-04-18","time":"8:00PM","awayTeam":{"ID":"89","City":"Chicago","Name":"Bulls","Abbreviation":"CHI"},"homeTeam":{"ID":"82","City":"Boston","Name":"Celtics","Abbreviation":"BOS"},"location":"TD Garden"},{"id":"40335","scheduleStatus":"Normal","originalDate":null,"originalTime":null,"delayedOrPostponedReason":null,"date":"2017-04-18","time":"10:30PM","awayTeam":{"ID":"98","City":"Utah","Name":"Jazz","Abbreviation":"UTA"},"homeTeam":{"ID":"102","City":"Los Angeles","Name":"Clippers","Abbreviation":"LAC"},"location":"Staples Center"},{"id":"40319","scheduleStatus":"Normal","originalDate":null,"originalTime":null,"delayedOrPostponedReason":null,"date":"2017-04-19","time":"7:00PM","awayTeam":{"ID":"91","City":"Atlanta","Name":"Hawks","Abbreviation":"ATL"},"homeTeam":{"ID":"94","City":"Washington","Name":"Wizards","Abbreviation":"WAS"},"location":"Capital One Arena"},{"id":"40331","scheduleStatus":"Normal","originalDate":null,"originalTime":null,"delayedOrPostponedReason":null,"date":"2017-04-19","time":"8:00PM","awayTeam":{"ID":"96","City":"Oklahoma City","Name":"Thunder","Abbreviation":"OKL"},"homeTeam":{"ID":"109","City":"Houston","Name":"Rockets","Abbreviation":"HOU"},"location":"Toyota Center"},{"id":"40323","scheduleStatus":"Normal","originalDate":null,"originalTime":null,"delayedOrPostponedReason":null,"date":"2017-04-19","time":"10:30PM","awayTeam":{"ID":"97","City":"Portland","Name":"Trail Blazers","Abbreviation":"POR"},"homeTeam":{"ID":"101","City":"Golden State","Name":"Warriors","Abbreviation":"GSW"},"location":"Oracle Arena"},{"id":"40312","scheduleStatus":"Normal","originalDate":null,"originalTime":null,"delayedOrPostponedReason":null,"date":"2017-04-20","time":"7:00PM","awayTeam":{"ID":"86","City":"Cleveland","Name":"Cavaliers","Abbreviation":"CLE"},"homeTeam":{"ID":"87","City":"Indiana","Name":"Pacers","Abbreviation":"IND"},"location":"Bankers Life Fieldhouse"},{"id":"40316","scheduleStatus":"Normal","originalDate":null,"originalTime":null,"delayedOrPostponedReason":null,"date":"2017-04-20","time":"8:00PM","awayTeam":{"ID":"81","City":"Toronto","Name":"Raptors","Abbreviation":"TOR"},"homeTeam":{"ID":"90","City":"Milwaukee","Name":"Bucks","Abbreviation":"MIL"},"location":"BMO Bradley Harris Center"},{"id":"40328","scheduleStatus":"Normal","originalDate":null,"originalTime":null,"delayedOrPostponedReason":null,"date":"2017-04-20","time":"9:30PM","awayTeam":{"ID":"106","City":"San Antonio","Name":"Spurs","Abbreviation":"SAS"},"homeTeam":{"ID":"107","City":"Memphis","Name":"Grizzlies","Abbreviation":"MEM"},"location":"FedEx Forum"},{"id":"40308","scheduleStatus":"Normal","originalDate":null,"originalTime":null,"delayedOrPostponedReason":null,"date":"2017-04-21","time":"7:00PM","awayTeam":{"ID":"82","City":"Boston","Name":"Celtics","Abbreviation":"BOS"},"homeTeam":{"ID":"89","City":"Chicago","Name":"Bulls","Abbreviation":"CHI"},"location":"KeyBank Center"},{"id":"40332","scheduleStatus":"Normal","originalDate":null,"originalTime":null,"delayedOrPostponedReason":null,"date":"2017-04-21","time":"9:30PM","awayTeam":{"ID":"109","City":"Houston","Name":"Rockets","Abbreviation":"HOU"},"homeTeam":{"ID":"96","City":"Oklahoma City","Name":"Thunder","Abbreviation":"OKL"},"location":"Chesapeake Energy Arena"},{"id":"40336","scheduleStatus":"Normal","originalDate":null,"originalTime":null,"delayedOrPostponedReason":null,"date":"2017-04-21","time":"10:00PM","awayTeam":{"ID":"102","City":"Los Angeles","Name":"Clippers","Abbreviation":"LAC"},"homeTeam":{"ID":"98","City":"Utah","Name":"Jazz","Abbreviation":"UTA"},"location":"Vivint Smart Home Arena"},{"id":"40317","scheduleStatus":"Normal","originalDate":null,"originalTime":null,"delayedOrPostponedReason":null,"date":"2017-04-22","time":"3:00PM","awayTeam":{"ID":"81","City":"Toronto","Name":"Raptors","Abbreviation":"TOR"},"homeTeam":{"ID":"90","City":"Milwaukee","Name":"Bucks","Abbreviation":"MIL"},"location":"BMO Bradley Harris Center"},{"id":"40320","scheduleStatus":"Normal","originalDate":null,"originalTime":null,"delayedOrPostponedReason":null,"date":"2017-04-22","time":"5:30PM","awayTeam":{"ID":"94","City":"Washington","Name":"Wizards","Abbreviation":"WAS"},"homeTeam":{"ID":"91","City":"Atlanta","Name":"Hawks","Abbreviation":"ATL"},"location":"Philips Arena"},{"id":"40329","scheduleStatus":"Normal","originalDate":null,"originalTime":null,"delayedOrPostponedReason":null,"date":"2017-04-22","time":"8:00PM","awayTeam":{"ID":"106","City":"San Antonio","Name":"Spurs","Abbreviation":"SAS"},"homeTeam":{"ID":"107","City":"Memphis","Name":"Grizzlies","Abbreviation":"MEM"},"location":"FedEx Forum"},{"id":"40324","scheduleStatus":"Normal","originalDate":null,"originalTime":null,"delayedOrPostponedReason":null,"date":"2017-04-22","time":"10:30PM","awayTeam":{"ID":"101","City":"Golden State","Name":"Warriors","Abbreviation":"GSW"},"homeTeam":{"ID":"97","City":"Portland","Name":"Trail Blazers","Abbreviation":"POR"},"location":"Moda Center"},{"id":"40313","scheduleStatus":"Normal","originalDate":null,"originalTime":null,"delayedOrPostponedReason":null,"date":"2017-04-23","time":"1:00PM","awayTeam":{"ID":"86","City":"Cleveland","Name":"Cavaliers","Abbreviation":"CLE"},"homeTeam":{"ID":"87","City":"Indiana","Name":"Pacers","Abbreviation":"IND"},"location":"Bankers Life Fieldhouse"},{"id":"40333","scheduleStatus":"Normal","originalDate":null,"originalTime":null,"delayedOrPostponedReason":null,"date":"2017-04-23","time":"3:30PM","awayTeam":{"ID":"109","City":"Houston","Name":"Rockets","Abbreviation":"HOU"},"homeTeam":{"ID":"96","City":"Oklahoma City","Name":"Thunder","Abbreviation":"OKL"},"location":"Chesapeake Energy Arena"},{"id":"40309","scheduleStatus":"Normal","originalDate":null,"originalTime":null,"delayedOrPostponedReason":null,"date":"2017-04-23","time":"6:30PM","awayTeam":{"ID":"82","City":"Boston","Name":"Celtics","Abbreviation":"BOS"},"homeTeam":{"ID":"89","City":"Chicago","Name":"Bulls","Abbreviation":"CHI"},"location":"KeyBank Center"},{"id":"40337","scheduleStatus":"Normal","originalDate":null,"originalTime":null,"delayedOrPostponedReason":null,"date":"2017-04-23","time":"9:00PM","awayTeam":{"ID":"102","City":"Los Angeles","Name":"Clippers","Abbreviation":"LAC"},"homeTeam":{"ID":"98","City":"Utah","Name":"Jazz","Abbreviation":"UTA"},"location":"Vivint Smart Home Arena"},{"id":"40365","scheduleStatus":"Normal","originalDate":null,"originalTime":null,"delayedOrPostponedReason":null,"date":"2017-04-24","time":"7:00PM","awayTeam":{"ID":"90","City":"Milwaukee","Name":"Bucks","Abbreviation":"MIL"},"homeTeam":{"ID":"81","City":"Toronto","Name":"Raptors","Abbreviation":"TOR"},"location":"Air Canada Center"},{"id":"40321","scheduleStatus":"Normal","originalDate":null,"originalTime":null,"delayedOrPostponedReason":null,"date":"2017-04-24","time":"8:00PM","awayTeam":{"ID":"94","City":"Washington","Name":"Wizards","Abbreviation":"WAS"},"homeTeam":{"ID":"91","City":"Atlanta","Name":"Hawks","Abbreviation":"ATL"},"location":"Philips Arena"},{"id":"40325","scheduleStatus":"Normal","originalDate":null,"originalTime":null,"delayedOrPostponedReason":null,"date":"2017-04-24","time":"10:30PM","awayTeam":{"ID":"101","City":"Golden State","Name":"Warriors","Abbreviation":"GSW"},"homeTeam":{"ID":"97","City":"Portland","Name":"Trail Blazers","Abbreviation":"POR"},"location":"Moda Center"},{"id":"40639","scheduleStatus":"Normal","originalDate":null,"originalTime":null,"delayedOrPostponedReason":null,"date":"2017-04-25","time":"8:00PM","awayTeam":{"ID":"96","City":"Oklahoma City","Name":"Thunder","Abbreviation":"OKL"},"homeTeam":{"ID":"109","City":"Houston","Name":"Rockets","Abbreviation":"HOU"},"location":"Toyota Center"},{"id":"40640","scheduleStatus":"Normal","originalDate":null,"originalTime":null,"delayedOrPostponedReason":null,"date":"2017-04-25","time":"9:00PM","awayTeam":{"ID":"107","City":"Memphis","Name":"Grizzlies","Abbreviation":"MEM"},"homeTeam":{"ID":"106","City":"San Antonio","Name":"Spurs","Abbreviation":"SAS"},"location":"ATu0026T Center"},{"id":"40641","scheduleStatus":"Normal","originalDate":null,"originalTime":null,"delayedOrPostponedReason":null,"date":"2017-04-25","time":"10:30PM","awayTeam":{"ID":"98","City":"Utah","Name":"Jazz","Abbreviation":"UTA"},"homeTeam":{"ID":"102","City":"Los Angeles","Name":"Clippers","Abbreviation":"LAC"},"location":"Staples Center"},{"id":"40642","scheduleStatus":"Normal","originalDate":null,"originalTime":null,"delayedOrPostponedReason":null,"date":"2017-04-26","time":"6:00PM","awayTeam":{"ID":"91","City":"Atlanta","Name":"Hawks","Abbreviation":"ATL"},"homeTeam":{"ID":"94","City":"Washington","Name":"Wizards","Abbreviation":"WAS"},"location":"Capital One Arena"},{"id":"40643","scheduleStatus":"Normal","originalDate":null,"originalTime":null,"delayedOrPostponedReason":null,"date":"2017-04-26","time":"8:30PM","awayTeam":{"ID":"89","City":"Chicago","Name":"Bulls","Abbreviation":"CHI"},"homeTeam":{"ID":"82","City":"Boston","Name":"Celtics","Abbreviation":"BOS"},"location":"TD Garden"},{"id":"40645","scheduleStatus":"Normal","originalDate":null,"originalTime":null,"delayedOrPostponedReason":null,"date":"2017-04-27","time":"7:00PM","awayTeam":{"ID":"81","City":"Toronto","Name":"Raptors","Abbreviation":"TOR"},"homeTeam":{"ID":"90","City":"Milwaukee","Name":"Bucks","Abbreviation":"MIL"},"location":"BMO Bradley Harris Center"},{"id":"40646","scheduleStatus":"Normal","originalDate":null,"originalTime":null,"delayedOrPostponedReason":null,"date":"2017-04-27","time":"9:30PM","awayTeam":{"ID":"106","City":"San Antonio","Name":"Spurs","Abbreviation":"SAS"},"homeTeam":{"ID":"107","City":"Memphis","Name":"Grizzlies","Abbreviation":"MEM"},"location":"FedEx Forum"},{"id":"40647","scheduleStatus":"Normal","originalDate":null,"originalTime":null,"delayedOrPostponedReason":null,"date":"2017-04-28","time":"7:30PM","awayTeam":{"ID":"94","City":"Washington","Name":"Wizards","Abbreviation":"WAS"},"homeTeam":{"ID":"91","City":"Atlanta","Name":"Hawks","Abbreviation":"ATL"},"location":"Philips Arena"},{"id":"40648","scheduleStatus":"Normal","originalDate":null,"originalTime":null,"delayedOrPostponedReason":null,"date":"2017-04-28","time":"8:00PM","awayTeam":{"ID":"82","City":"Boston","Name":"Celtics","Abbreviation":"BOS"},"homeTeam":{"ID":"89","City":"Chicago","Name":"Bulls","Abbreviation":"CHI"},"location":"KeyBank Center"},{"id":"40649","scheduleStatus":"Normal","originalDate":null,"originalTime":null,"delayedOrPostponedReason":null,"date":"2017-04-28","time":"10:30PM","awayTeam":{"ID":"102","City":"Los Angeles","Name":"Clippers","Abbreviation":"LAC"},"homeTeam":{"ID":"98","City":"Utah","Name":"Jazz","Abbreviation":"UTA"},"location":"Vivint Smart Home Arena"},{"id":"40659","scheduleStatus":"Normal","originalDate":null,"originalTime":null,"delayedOrPostponedReason":null,"date":"2017-04-30","time":"1:00PM","awayTeam":{"ID":"94","City":"Washington","Name":"Wizards","Abbreviation":"WAS"},"homeTeam":{"ID":"82","City":"Boston","Name":"Celtics","Abbreviation":"BOS"},"location":"TD Garden"},{"id":"40660","scheduleStatus":"Normal","originalDate":null,"originalTime":null,"delayedOrPostponedReason":null,"date":"2017-04-30","time":"3:30PM","awayTeam":{"ID":"98","City":"Utah","Name":"Jazz","Abbreviation":"UTA"},"homeTeam":{"ID":"102","City":"Los Angeles","Name":"Clippers","Abbreviation":"LAC"},"location":"Staples Center"},{"id":"40651","scheduleStatus":"Normal","originalDate":null,"originalTime":null,"delayedOrPostponedReason":null,"date":"2017-05-01","time":"7:00PM","awayTeam":{"ID":"81","City":"Toronto","Name":"Raptors","Abbreviation":"TOR"},"homeTeam":{"ID":"86","City":"Cleveland","Name":"Cavaliers","Abbreviation":"CLE"},"location":"Quicken Loans Arena"},{"id":"40652","scheduleStatus":"Normal","originalDate":null,"originalTime":null,"delayedOrPostponedReason":null,"date":"2017-05-01","time":"9:30PM","awayTeam":{"ID":"109","City":"Houston","Name":"Rockets","Abbreviation":"HOU"},"homeTeam":{"ID":"106","City":"San Antonio","Name":"Spurs","Abbreviation":"SAS"},"location":"ATu0026T Center"},{"id":"40661","scheduleStatus":"Normal","originalDate":null,"originalTime":null,"delayedOrPostponedReason":null,"date":"2017-05-02","time":"8:00PM","awayTeam":{"ID":"94","City":"Washington","Name":"Wizards","Abbreviation":"WAS"},"homeTeam":{"ID":"82","City":"Boston","Name":"Celtics","Abbreviation":"BOS"},"location":"TD Garden"},{"id":"40662","scheduleStatus":"Normal","originalDate":null,"originalTime":null,"delayedOrPostponedReason":null,"date":"2017-05-02","time":"10:30PM","awayTeam":{"ID":"98","City":"Utah","Name":"Jazz","Abbreviation":"UTA"},"homeTeam":{"ID":"101","City":"Golden State","Name":"Warriors","Abbreviation":"GSW"},"location":"Oracle Arena"},{"id":"40653","scheduleStatus":"Normal","originalDate":null,"originalTime":null,"delayedOrPostponedReason":null,"date":"2017-05-03","time":"7:00PM","awayTeam":{"ID":"81","City":"Toronto","Name":"Raptors","Abbreviation":"TOR"},"homeTeam":{"ID":"86","City":"Cleveland","Name":"Cavaliers","Abbreviation":"CLE"},"location":"Quicken Loans Arena"},{"id":"40654","scheduleStatus":"Normal","originalDate":null,"originalTime":null,"delayedOrPostponedReason":null,"date":"2017-05-03","time":"9:30PM","awayTeam":{"ID":"109","City":"Houston","Name":"Rockets","Abbreviation":"HOU"},"homeTeam":{"ID":"106","City":"San Antonio","Name":"Spurs","Abbreviation":"SAS"},"location":"ATu0026T Center"},{"id":"40663","scheduleStatus":"Normal","originalDate":null,"originalTime":null,"delayedOrPostponedReason":null,"date":"2017-05-04","time":"8:00PM","awayTeam":{"ID":"82","City":"Boston","Name":"Celtics","Abbreviation":"BOS"},"homeTeam":{"ID":"94","City":"Washington","Name":"Wizards","Abbreviation":"WAS"},"location":"Capital One Arena"},{"id":"40664","scheduleStatus":"Normal","originalDate":null,"originalTime":null,"delayedOrPostponedReason":null,"date":"2017-05-04","time":"10:30PM","awayTeam":{"ID":"98","City":"Utah","Name":"Jazz","Abbreviation":"UTA"},"homeTeam":{"ID":"101","City":"Golden State","Name":"Warriors","Abbreviation":"GSW"},"location":"Oracle Arena"},{"id":"40655","scheduleStatus":"Normal","originalDate":null,"originalTime":null,"delayedOrPostponedReason":null,"date":"2017-05-05","time":"7:00PM","awayTeam":{"ID":"86","City":"Cleveland","Name":"Cavaliers","Abbreviation":"CLE"},"homeTeam":{"ID":"81","City":"Toronto","Name":"Raptors","Abbreviation":"TOR"},"location":"Air Canada Center"},{"id":"40656","scheduleStatus":"Normal","originalDate":null,"originalTime":null,"delayedOrPostponedReason":null,"date":"2017-05-05","time":"9:30PM","awayTeam":{"ID":"106","City":"San Antonio","Name":"Spurs","Abbreviation":"SAS"},"homeTeam":{"ID":"109","City":"Houston","Name":"Rockets","Abbreviation":"HOU"},"location":"Toyota Center"},{"id":"40665","scheduleStatus":"Normal","originalDate":null,"originalTime":null,"delayedOrPostponedReason":null,"date":"2017-05-06","time":"8:30PM","awayTeam":{"ID":"101","City":"Golden State","Name":"Warriors","Abbreviation":"GSW"},"homeTeam":{"ID":"98","City":"Utah","Name":"Jazz","Abbreviation":"UTA"},"location":"Vivint Smart Home Arena"},{"id":"40657","scheduleStatus":"Normal","originalDate":null,"originalTime":null,"delayedOrPostponedReason":null,"date":"2017-05-07","time":"3:30PM","awayTeam":{"ID":"86","City":"Cleveland","Name":"Cavaliers","Abbreviation":"CLE"},"homeTeam":{"ID":"81","City":"Toronto","Name":"Raptors","Abbreviation":"TOR"},"location":"Air Canada Center"},{"id":"40666","scheduleStatus":"Normal","originalDate":null,"originalTime":null,"delayedOrPostponedReason":null,"date":"2017-05-07","time":"6:30PM","awayTeam":{"ID":"82","City":"Boston","Name":"Celtics","Abbreviation":"BOS"},"homeTeam":{"ID":"94","City":"Washington","Name":"Wizards","Abbreviation":"WAS"},"location":"Capital One Arena"},{"id":"40658","scheduleStatus":"Normal","originalDate":null,"originalTime":null,"delayedOrPostponedReason":null,"date":"2017-05-07","time":"9:00PM","awayTeam":{"ID":"106","City":"San Antonio","Name":"Spurs","Abbreviation":"SAS"},"homeTeam":{"ID":"109","City":"Houston","Name":"Rockets","Abbreviation":"HOU"},"location":"Toyota Center"},{"id":"40667","scheduleStatus":"Normal","originalDate":null,"originalTime":null,"delayedOrPostponedReason":null,"date":"2017-05-08","time":"9:00PM","awayTeam":{"ID":"101","City":"Golden State","Name":"Warriors","Abbreviation":"GSW"},"homeTeam":{"ID":"98","City":"Utah","Name":"Jazz","Abbreviation":"UTA"},"location":"Vivint Smart Home Arena"},{"id":"40683","scheduleStatus":"Normal","originalDate":null,"originalTime":null,"delayedOrPostponedReason":null,"date":"2017-05-09","time":"8:00PM","awayTeam":{"ID":"109","City":"Houston","Name":"Rockets","Abbreviation":"HOU"},"homeTeam":{"ID":"106","City":"San Antonio","Name":"Spurs","Abbreviation":"SAS"},"location":"ATu0026T Center"},{"id":"40684","scheduleStatus":"Normal","originalDate":null,"originalTime":null,"delayedOrPostponedReason":null,"date":"2017-05-10","time":"8:00PM","awayTeam":{"ID":"94","City":"Washington","Name":"Wizards","Abbreviation":"WAS"},"homeTeam":{"ID":"82","City":"Boston","Name":"Celtics","Abbreviation":"BOS"},"location":"TD Garden"},{"id":"40685","scheduleStatus":"Normal","originalDate":null,"originalTime":null,"delayedOrPostponedReason":null,"date":"2017-05-11","time":"8:00PM","awayTeam":{"ID":"106","City":"San Antonio","Name":"Spurs","Abbreviation":"SAS"},"homeTeam":{"ID":"109","City":"Houston","Name":"Rockets","Abbreviation":"HOU"},"location":"Toyota Center"},{"id":"40686","scheduleStatus":"Normal","originalDate":null,"originalTime":null,"delayedOrPostponedReason":null,"date":"2017-05-12","time":"8:00PM","awayTeam":{"ID":"82","City":"Boston","Name":"Celtics","Abbreviation":"BOS"},"homeTeam":{"ID":"94","City":"Washington","Name":"Wizards","Abbreviation":"WAS"},"location":"Capital One Arena"},{"id":"40711","scheduleStatus":"Normal","originalDate":null,"originalTime":null,"delayedOrPostponedReason":null,"date":"2017-05-14","time":"3:30PM","awayTeam":{"ID":"106","City":"San Antonio","Name":"Spurs","Abbreviation":"SAS"},"homeTeam":{"ID":"101","City":"Golden State","Name":"Warriors","Abbreviation":"GSW"},"location":"Oracle Arena"},{"id":"40710","scheduleStatus":"Normal","originalDate":null,"originalTime":null,"delayedOrPostponedReason":null,"date":"2017-05-15","time":"8:00PM","awayTeam":{"ID":"94","City":"Washington","Name":"Wizards","Abbreviation":"WAS"},"homeTeam":{"ID":"82","City":"Boston","Name":"Celtics","Abbreviation":"BOS"},"location":"TD Garden"},{"id":"40716","scheduleStatus":"Normal","originalDate":null,"originalTime":null,"delayedOrPostponedReason":null,"date":"2017-05-16","time":"9:00PM","awayTeam":{"ID":"106","City":"San Antonio","Name":"Spurs","Abbreviation":"SAS"},"homeTeam":{"ID":"101","City":"Golden State","Name":"Warriors","Abbreviation":"GSW"},"location":"Oracle Arena"},{"id":"40717","scheduleStatus":"Normal","originalDate":null,"originalTime":null,"delayedOrPostponedReason":null,"date":"2017-05-17","time":"8:30PM","awayTeam":{"ID":"86","City":"Cleveland","Name":"Cavaliers","Abbreviation":"CLE"},"homeTeam":{"ID":"82","City":"Boston","Name":"Celtics","Abbreviation":"BOS"},"location":"TD Garden"},{"id":"40718","scheduleStatus":"Normal","originalDate":null,"originalTime":null,"delayedOrPostponedReason":null,"date":"2017-05-19","time":"8:30PM","awayTeam":{"ID":"86","City":"Cleveland","Name":"Cavaliers","Abbreviation":"CLE"},"homeTeam":{"ID":"82","City":"Boston","Name":"Celtics","Abbreviation":"BOS"},"location":"TD Garden"},{"id":"40719","scheduleStatus":"Normal","originalDate":null,"originalTime":null,"delayedOrPostponedReason":null,"date":"2017-05-20","time":"9:00PM","awayTeam":{"ID":"101","City":"Golden State","Name":"Warriors","Abbreviation":"GSW"},"homeTeam":{"ID":"106","City":"San Antonio","Name":"Spurs","Abbreviation":"SAS"},"location":"ATu0026T Center"},{"id":"40720","scheduleStatus":"Normal","originalDate":null,"originalTime":null,"delayedOrPostponedReason":null,"date":"2017-05-21","time":"8:30PM","awayTeam":{"ID":"82","City":"Boston","Name":"Celtics","Abbreviation":"BOS"},"homeTeam":{"ID":"86","City":"Cleveland","Name":"Cavaliers","Abbreviation":"CLE"},"location":"Quicken Loans Arena"},{"id":"40721","scheduleStatus":"Normal","originalDate":null,"originalTime":null,"delayedOrPostponedReason":null,"date":"2017-05-22","time":"9:00PM","awayTeam":{"ID":"101","City":"Golden State","Name":"Warriors","Abbreviation":"GSW"},"homeTeam":{"ID":"106","City":"San Antonio","Name":"Spurs","Abbreviation":"SAS"},"location":"ATu0026T Center"},{"id":"40722","scheduleStatus":"Normal","originalDate":null,"originalTime":null,"delayedOrPostponedReason":null,"date":"2017-05-23","time":"8:30PM","awayTeam":{"ID":"82","City":"Boston","Name":"Celtics","Abbreviation":"BOS"},"homeTeam":{"ID":"86","City":"Cleveland","Name":"Cavaliers","Abbreviation":"CLE"},"location":"Quicken Loans Arena"},{"id":"40724","scheduleStatus":"Normal","originalDate":null,"originalTime":null,"delayedOrPostponedReason":null,"date":"2017-05-25","time":"8:30PM","awayTeam":{"ID":"86","City":"Cleveland","Name":"Cavaliers","Abbreviation":"CLE"},"homeTeam":{"ID":"82","City":"Boston","Name":"Celtics","Abbreviation":"BOS"},"location":"TD Garden"},{"id":"40741","scheduleStatus":"Normal","originalDate":null,"originalTime":null,"delayedOrPostponedReason":null,"date":"2017-06-01","time":"9:00PM","awayTeam":{"ID":"86","City":"Cleveland","Name":"Cavaliers","Abbreviation":"CLE"},"homeTeam":{"ID":"101","City":"Golden State","Name":"Warriors","Abbreviation":"GSW"},"location":"Oracle Arena"},{"id":"40742","scheduleStatus":"Normal","originalDate":null,"originalTime":null,"delayedOrPostponedReason":null,"date":"2017-06-04","time":"8:00PM","awayTeam":{"ID":"86","City":"Cleveland","Name":"Cavaliers","Abbreviation":"CLE"},"homeTeam":{"ID":"101","City":"Golden State","Name":"Warriors","Abbreviation":"GSW"},"location":"Oracle Arena"},{"id":"40743","scheduleStatus":"Normal","originalDate":null,"originalTime":null,"delayedOrPostponedReason":null,"date":"2017-06-07","time":"9:00PM","awayTeam":{"ID":"101","City":"Golden State","Name":"Warriors","Abbreviation":"GSW"},"homeTeam":{"ID":"86","City":"Cleveland","Name":"Cavaliers","Abbreviation":"CLE"},"location":"Quicken Loans Arena"},{"id":"40744","scheduleStatus":"Normal","originalDate":null,"originalTime":null,"delayedOrPostponedReason":null,"date":"2017-06-09","time":"9:00PM","awayTeam":{"ID":"101","City":"Golden State","Name":"Warriors","Abbreviation":"GSW"},"homeTeam":{"ID":"86","City":"Cleveland","Name":"Cavaliers","Abbreviation":"CLE"},"location":"Quicken Loans Arena"},{"id":"40745","scheduleStatus":"Normal","originalDate":null,"originalTime":null,"delayedOrPostponedReason":null,"date":"2017-06-12","time":"9:00PM","awayTeam":{"ID":"86","City":"Cleveland","Name":"Cavaliers","Abbreviation":"CLE"},"homeTeam":{"ID":"101","City":"Golden State","Name":"Warriors","Abbreviation":"GSW"},"location":"Oracle Arena"}]}}